[
  { "id": "NYC1", "name": "NYC1 - New York", "city": "New York", "country": "US", "lat": 40.7128, "lng": -74.0060 },
  { "id": "CHI1", "name": "CHI1 - Chicago", "city": "Chicago", "country": "US", "lat": 41.8781, "lng": -87.6298 },
  { "id": "DFW1", "name": "DFW1 - Dallas", "city": "Dallas", "country": "US", "lat": 32.7767, "lng": -96.7970 },
  { "id": "LAX1", "name": "LAX1 - Los Angeles", "city": "Los Angeles", "country": "US", "lat": 34.0522, "lng": -118.2437 },
  { "id": "SJC1", "name": "SJC1 - San Jose", "city": "San Jose", "country": "US", "lat": 37.3382, "lng": -121.8863 },
  { "id": "MIA1", "name": "MIA1 - Miami", "city": "Miami", "country": "US", "lat": 25.7617, "lng": -80.1918 },
  { "id": "SEA1", "name": "SEA1 - Seattle", "city": "Seattle", "country": "US", "lat": 47.6062, "lng": -122.3321 },
  { "id": "ATL1", "name": "ATL1 - Atlanta", "city": "Atlanta", "country": "US", "lat": 33.7490, "lng": -84.3880 },
  { "id": "PHX1", "name": "PHX1 - Phoenix", "city": "Phoenix", "country": "US", "lat": 33.4484, "lng": -112.0740 },
  { "id": "DEN1", "name": "DEN1 - Denver", "city": "Denver", "country": "US", "lat": 39.7392, "lng": -104.9903 },
  { "id": "BOS1", "name": "BOS1 - Boston", "city": "Boston", "country": "US", "lat": 42.3601, "lng": -71.0589 },
  { "id": "LAS1", "name": "LAS1 - Las Vegas", "city": "Las Vegas", "country": "US", "lat": 36.1699, "lng": -115.1398 },
  { "id": "SLC1", "name": "SLC1 - Salt Lake City", "city": "Salt Lake City", "country": "US", "lat": 40.7608, "lng": -111.8910 },
  { "id": "MSP1", "name": "MSP1 - Minneapolis", "city": "Minneapolis", "country": "US", "lat": 44.9778, "lng": -93.2650 },
  { "id": "CLT1", "name": "CLT1 - Charlotte", "city": "Charlotte", "country": "US", "lat": 35.2271, "lng": -80.8431 },
  { "id": "IAD1", "name": "IAD1 - Ashburn", "city": "Ashburn", "country": "US", "lat": 39.0438, "lng": -77.4874 },
  { "id": "AUS1", "name": "AUS1 - Austin", "city": "Austin", "country": "US", "lat": 30.2672, "lng": -97.7431 },
  { "id": "HOU1", "name": "HOU1 - Houston", "city": "Houston", "country": "US", "lat": 29.7604, "lng": -95.3698 },
  { "id": "POR1", "name": "POR1 - Portland", "city": "Portland", "country": "US", "lat": 45.5152, "lng": -122.6784 },
  { "id": "SNA1", "name": "SNA1 - Orange County", "city": "Irvine", "country": "US", "lat": 33.6846, "lng": -117.8265 },
  { "id": "SAN1", "name": "SAN1 - San Diego", "city": "San Diego", "country": "US", "lat": 32.7157, "lng": -117.1611 },
  { "id": "PHL1", "name": "PHL1 - Philadelphia", "city": "Philadelphia", "country": "US", "lat": 39.9526, "lng": -75.1652 },
  { "id": "BAL1", "name": "BAL1 - Baltimore", "city": "Baltimore", "country": "US", "lat": 39.2904, "lng": -76.6122 },
  { "id": "RDU1", "name": "RDU1 - Raleigh", "city": "Raleigh", "country": "US", "lat": 35.7796, "lng": -78.6382 },
  { "id": "ORL1", "name": "ORL1 - Orlando", "city": "Orlando", "country": "US", "lat": 28.5383, "lng": -81.3792 },
  { "id": "TPA1", "name": "TPA1 - Tampa", "city": "Tampa", "country": "US", "lat": 27.9506, "lng": -82.4572 },
  { "id": "SAC1", "name": "SAC1 - Sacramento", "city": "Sacramento", "country": "US", "lat": 38.5816, "lng": -121.4944 },
  { "id": "CLE1", "name": "CLE1 - Cleveland", "city": "Cleveland", "country": "US", "lat": 41.4993, "lng": -81.6944 },
  { "id": "DET1", "name": "DET1 - Detroit", "city": "Detroit", "country": "US", "lat": 42.3314, "lng": -83.0458 },
  { "id": "CMH1", "name": "CMH1 - Columbus", "city": "Columbus", "country": "US", "lat": 39.9612, "lng": -82.9988 },
  { "id": "IND1", "name": "IND1 - Indianapolis", "city": "Indianapolis", "country": "US", "lat": 39.7684, "lng": -86.1581 },
  { "id": "KC1", "name": "KC1 - Kansas City", "city": "Kansas City", "country": "US", "lat": 39.0997, "lng": -94.5786 },
  { "id": "STL1", "name": "STL1 - St. Louis", "city": "St. Louis", "country": "US", "lat": 38.6270, "lng": -90.1994 },
  { "id": "MSY1", "name": "MSY1 - New Orleans", "city": "New Orleans", "country": "US", "lat": 29.9511, "lng": -90.0715 },
  { "id": "NASH1", "name": "NASH1 - Nashville", "city": "Nashville", "country": "US", "lat": 36.1627, "lng": -86.7816 },
  { "id": "PIT1", "name": "PIT1 - Pittsburgh", "city": "Pittsburgh", "country": "US", "lat": 40.4406, "lng": -79.9959 },
  { "id": "ALB1", "name": "ALB1 - Albany", "city": "Albany", "country": "US", "lat": 42.6526, "lng": -73.7562 },

  { "id": "LON1", "name": "LON1 - London", "city": "London", "country": "GB", "lat": 51.5072, "lng": -0.1276 },
  { "id": "AMS1", "name": "AMS1 - Amsterdam", "city": "Amsterdam", "country": "NL", "lat": 52.3676, "lng": 4.9041 },
  { "id": "FRA1", "name": "FRA1 - Frankfurt", "city": "Frankfurt", "country": "DE", "lat": 50.1109, "lng": 8.6821 },
  { "id": "PAR1", "name": "PAR1 - Paris", "city": "Paris", "country": "FR", "lat": 48.8566, "lng": 2.3522 },
  { "id": "MAD1", "name": "MAD1 - Madrid", "city": "Madrid", "country": "ES", "lat": 40.4168, "lng": -3.7038 },
  { "id": "MIL1", "name": "MIL1 - Milan", "city": "Milan", "country": "IT", "lat": 45.4642, "lng": 9.1900 },
  { "id": "STO1", "name": "STO1 - Stockholm", "city": "Stockholm", "country": "SE", "lat": 59.3293, "lng": 18.0686 },
  { "id": "HEL1", "name": "HEL1 - Helsinki", "city": "Helsinki", "country": "FI", "lat": 60.1699, "lng": 24.9384 },
  { "id": "ZRH1", "name": "ZRH1 - Zurich", "city": "Zurich", "country": "CH", "lat": 47.3769, "lng": 8.5417 },
  { "id": "DUB1", "name": "DUB1 - Dublin", "city": "Dublin", "country": "IE", "lat": 53.3498, "lng": -6.2603 },
  { "id": "BRU1", "name": "BRU1 - Brussels", "city": "Brussels", "country": "BE", "lat": 50.8503, "lng": 4.3517 },
  { "id": "VIE1", "name": "VIE1 - Vienna", "city": "Vienna", "country": "AT", "lat": 48.2082, "lng": 16.3738 },

  { "id": "SYD1", "name": "SYD1 - Sydney", "city": "Sydney", "country": "AU", "lat": -33.8688, "lng": 151.2093 },
  { "id": "MEL1", "name": "MEL1 - Melbourne", "city": "Melbourne", "country": "AU", "lat": -37.8136, "lng": 144.9631 },
  { "id": "BNE1", "name": "BNE1 - Brisbane", "city": "Brisbane", "country": "AU", "lat": -27.4698, "lng": 153.0251 },
  { "id": "PER1", "name": "PER1 - Perth", "city": "Perth", "country": "AU", "lat": -31.9505, "lng": 115.8605 },
  { "id": "ADL1", "name": "ADL1 - Adelaide", "city": "Adelaide", "country": "AU", "lat": -34.9285, "lng": 138.6007 },

  { "id": "SGP1", "name": "SGP1 - Singapore", "city": "Singapore", "country": "SG", "lat": 1.3521, "lng": 103.8198 },
  { "id": "HKG1", "name": "HKG1 - Hong Kong", "city": "Hong Kong", "country": "HK", "lat": 22.3193, "lng": 114.1694 },
  { "id": "TYO1", "name": "TYO1 - Tokyo", "city": "Tokyo", "country": "JP", "lat": 35.6762, "lng": 139.6503 },
  { "id": "OSA1", "name": "OSA1 - Osaka", "city": "Osaka", "country": "JP", "lat": 34.6937, "lng": 135.5023 },
  { "id": "SEL1", "name": "SEL1 - Seoul", "city": "Seoul", "country": "KR", "lat": 37.5665, "lng": 126.9780 },
  { "id": "KUL1", "name": "KUL1 - Kuala Lumpur", "city": "Kuala Lumpur", "country": "MY", "lat": 3.1390, "lng": 101.6869 },

  { "id": "TOR1", "name": "TOR1 - Toronto", "city": "Toronto", "country": "CA", "lat": 43.6532, "lng": -79.3832 },
  { "id": "MTL1", "name": "MTL1 - Montreal", "city": "Montreal", "country": "CA", "lat": 45.5019, "lng": -73.5674 },
  { "id": "VAN1", "name": "VAN1 - Vancouver", "city": "Vancouver", "country": "CA", "lat": 49.2827, "lng": -123.1207 },

  { "id": "SPO1", "name": "SPO1 - Sao Paulo", "city": "Sao Paulo", "country": "BR", "lat": -23.5558, "lng": -46.6396 },
  { "id": "MEX1", "name": "MEX1 - Mexico City", "city": "Mexico City", "country": "MX", "lat": 19.4326, "lng": -99.1332 },

  { "id": "JNB1", "name": "JNB1 - Johannesburg", "city": "Johannesburg", "country": "ZA", "lat": -26.2041, "lng": 28.0473 },
  { "id": "DXB1", "name": "DXB1 - Dubai", "city": "Dubai", "country": "AE", "lat": 25.2048, "lng": 55.2708 }
]
