[
  { "id": "NYC1", "name": "NYC1 - New York", "city": "New York", "country": "US", "lat": 40.7128, "lng": -74.0060 },
  { "id": "CHI1", "name": "CHI1 - Chicago", "city": "Chicago", "country": "US", "lat": 41.8781, "lng": -87.6298 },
  { "id": "DFW1", "name": "DFW1 - Dallas", "city": "Dallas", "country": "US", "lat": 32.7767, "lng": -96.7970 },
  { "id": "LAX1", "name": "LAX1 - Los Angeles", "city": "Los Angeles", "country": "US", "lat": 34.0522, "lng": -118.2437 },
  { "id": "SJC1", "name": "SJC1 - San Jose", "city": "San Jose", "country": "US", "lat": 37.3382, "lng": -121.8863 },
  { "id": "MIA1", "name": "MIA1 - Miami", "city": "Miami", "country": "US", "lat": 25.7617, "lng": -80.1918 },
  { "id": "SEA1", "name": "SEA1 - Seattle", "city": "Seattle", "country": "US", "lat": 47.6062, "lng": -122.3321 },
  { "id": "ATL1", "name": "ATL1 - Atlanta", "city": "Atlanta", "country": "US", "lat": 33.7490, "lng": -84.3880 },
  { "id": "PHX1", "name": "PHX1 - Phoenix", "city": "Phoenix", "country": "US", "lat": 33.4484, "lng": -112.0740 },
  { "id": "DEN1", "name": "DEN1 - Denver", "city": "Denver", "country": "US", "lat": 39.7392, "lng": -104.9903 },
  { "id": "BOS1", "name": "BOS1 - Boston", "city": "Boston", "country": "US", "lat": 42.3601, "lng": -71.0589 },
  { "id": "LAS1", "name": "LAS1 - Las Vegas", "city": "Las Vegas", "country": "US", "lat": 36.1699, "lng": -115.1398 }
]
